{
    "Doctors" : {
      "Doctor 1" : {
        "Field" : "Oncology",
        "FullName" : "Edward LongBottom",
        "Lat" : -33.76464,
        "Lng" : 150.81738,
        "Location" : "Mt Druitt",
        "Time" : "9:00am - 5:00pm"
      },
      "Doctor 2" : {
        "Field" : "Cardiology",
        "FullName" : "Penny ShortBottom",
        "Lat" : -33.77561,
        "Lng" : 150.91739,
        "Location" : "Blacktown",
        "Time" : "9:00am - 5:00pm"
      },
      "Doctor 3" : {
        "Field" : "Dentistry",
        "FullName" : "Karan Singh",
        "Lat" : -33.81698,
        "Lng" : 151.00343,
        "Location" : "Parramatta",
        "Time" : "9:00am - 5:00pm"
      },
      "Doctor 4" : {
        "Field" : "Dentistry",
        "FullName" : "Andy Lee",
        "lat": -33.8809,
        "lng": 151.1155,
        "Location" : "Croydon",
        "Time" : "9:00am - 5:00pm"
      },
      "Doctor 5" : {
        "Field" : "Surgeon",
        "FullName" : "Himanshu Mehta",
        "lat": -33.8775,
        "lng": 151.0824,
        "Location" : "Strathfield",
        "Time" : "9:00am - 5:00pm"
    }
  }
}